[
  {
    "id": "london_gb",
    "city": "London",
    "country": "United Kingdom",
    "countryCode": "GB",
    "region": "Europe",
    "lat": 51.5074,
    "lon": -0.1278,
    "tags": ["city", "culture", "history", "food", "nightlife", "mild", "budget-high"],
    "budgetLevel": 3,
    "vibeScore": { "city": 5, "beach": 0, "nature": 1, "adventure": 1, "culture": 5, "relax": 1 }
  },
  {
    "id": "edinburgh_gb",
    "city": "Edinburgh",
    "country": "United Kingdom",
    "countryCode": "GB",
    "region": "Europe",
    "lat": 55.9533,
    "lon": -3.1883,
    "tags": ["city", "culture", "history", "scenic", "mild", "budget-mid"],
    "budgetLevel": 2,
    "vibeScore": { "city": 4, "beach": 0, "nature": 2, "adventure": 1, "culture": 4, "relax": 2 }
  },
  {
    "id": "paris_fr",
    "city": "Paris",
    "country": "France",
    "countryCode": "FR",
    "region": "Europe",
    "lat": 48.8566,
    "lon": 2.3522,
    "tags": ["city", "culture", "history", "food", "romantic", "mild", "budget-high"],
    "budgetLevel": 3,
    "vibeScore": { "city": 5, "beach": 0, "nature": 1, "adventure": 1, "culture": 5, "relax": 2 }
  },
  {
    "id": "barcelona_es",
    "city": "Barcelona",
    "country": "Spain",
    "countryCode": "ES",
    "region": "Europe",
    "lat": 41.3851,
    "lon": 2.1734,
    "tags": ["city", "beach", "culture", "food", "nightlife", "warm", "budget-mid"],
    "budgetLevel": 2,
    "vibeScore": { "city": 5, "beach": 3, "nature": 1, "adventure": 2, "culture": 4, "relax": 2 }
  },
  {
    "id": "lisbon_pt",
    "city": "Lisbon",
    "country": "Portugal",
    "countryCode": "PT",
    "region": "Europe",
    "lat": 38.7223,
    "lon": -9.1393,
    "tags": ["city", "culture", "food", "scenic", "nightlife", "warm", "budget-mid"],
    "budgetLevel": 2,
    "vibeScore": { "city": 5, "beach": 2, "nature": 2, "adventure": 2, "culture": 4, "relax": 2 }
  },
  {
    "id": "porto_pt",
    "city": "Porto",
    "country": "Portugal",
    "countryCode": "PT",
    "region": "Europe",
    "lat": 41.1579,
    "lon": -8.6291,
    "tags": ["city", "culture", "food", "scenic", "mild", "budget-low"],
    "budgetLevel": 1,
    "vibeScore": { "city": 4, "beach": 1, "nature": 2, "adventure": 1, "culture": 4, "relax": 3 }
  },
  {
    "id": "rome_it",
    "city": "Rome",
    "country": "Italy",
    "countryCode": "IT",
    "region": "Europe",
    "lat": 41.9028,
    "lon": 12.4964,
    "tags": ["city", "history", "culture", "food", "warm", "budget-mid"],
    "budgetLevel": 2,
    "vibeScore": { "city": 5, "beach": 0, "nature": 1, "adventure": 1, "culture": 5, "relax": 1 }
  },
  {
    "id": "florence_it",
    "city": "Florence",
    "country": "Italy",
    "countryCode": "IT",
    "region": "Europe",
    "lat": 43.7696,
    "lon": 11.2558,
    "tags": ["city", "culture", "history", "food", "romantic", "warm", "budget-mid"],
    "budgetLevel": 2,
    "vibeScore": { "city": 4, "beach": 0, "nature": 1, "adventure": 1, "culture": 5, "relax": 2 }
  },
  {
    "id": "venice_it",
    "city": "Venice",
    "country": "Italy",
    "countryCode": "IT",
    "region": "Europe",
    "lat": 45.4408,
    "lon": 12.3155,
    "tags": ["city", "romantic", "culture", "history", "mild", "budget-high"],
    "budgetLevel": 3,
    "vibeScore": { "city": 4, "beach": 0, "nature": 0, "adventure": 1, "culture": 4, "relax": 3 }
  },
  {
    "id": "amsterdam_nl",
    "city": "Amsterdam",
    "country": "Netherlands",
    "countryCode": "NL",
    "region": "Europe",
    "lat": 52.3676,
    "lon": 4.9041,
    "tags": ["city", "culture", "nightlife", "food", "mild", "budget-high"],
    "budgetLevel": 3,
    "vibeScore": { "city": 5, "beach": 0, "nature": 1, "adventure": 2, "culture": 4, "relax": 2 }
  },
  {
    "id": "berlin_de",
    "city": "Berlin",
    "country": "Germany",
    "countryCode": "DE",
    "region": "Europe",
    "lat": 52.52,
    "lon": 13.405,
    "tags": ["city", "culture", "history", "nightlife", "mild", "budget-mid"],
    "budgetLevel": 2,
    "vibeScore": { "city": 5, "beach": 0, "nature": 1, "adventure": 2, "culture": 4, "relax": 2 }
  },
  {
    "id": "prague_cz",
    "city": "Prague",
    "country": "Czechia",
    "countryCode": "CZ",
    "region": "Europe",
    "lat": 50.0755,
    "lon": 14.4378,
    "tags": ["city", "culture", "history", "scenic", "mild", "budget-low"],
    "budgetLevel": 1,
    "vibeScore": { "city": 5, "beach": 0, "nature": 1, "adventure": 1, "culture": 4, "relax": 3 }
  },
  {
    "id": "vienna_at",
    "city": "Vienna",
    "country": "Austria",
    "countryCode": "AT",
    "region": "Europe",
    "lat": 48.2082,
    "lon": 16.3738,
    "tags": ["city", "culture", "history", "food", "mild", "budget-mid"],
    "budgetLevel": 2,
    "vibeScore": { "city": 4, "beach": 0, "nature": 1, "adventure": 1, "culture": 5, "relax": 3 }
  },
  {
    "id": "budapest_hu",
    "city": "Budapest",
    "country": "Hungary",
    "countryCode": "HU",
    "region": "Europe",
    "lat": 47.4979,
    "lon": 19.0402,
    "tags": ["city", "culture", "nightlife", "thermal", "mild", "budget-low"],
    "budgetLevel": 1,
    "vibeScore": { "city": 5, "beach": 0, "nature": 1, "adventure": 2, "culture": 4, "relax": 4 }
  },
  {
    "id": "reykjavik_is",
    "city": "Reykjavik",
    "country": "Iceland",
    "countryCode": "IS",
    "region": "Europe",
    "lat": 64.1466,
    "lon": -21.9426,
    "tags": ["city", "nature", "adventure", "scenic", "cold", "budget-high"],
    "budgetLevel": 3,
    "vibeScore": { "city": 2, "beach": 0, "nature": 5, "adventure": 5, "culture": 2, "relax": 2 }
  },

  {
    "id": "new_york_us",
    "city": "New York City",
    "country": "United States",
    "countryCode": "US",
    "region": "North America",
    "lat": 40.7128,
    "lon": -74.006,
    "tags": ["city", "culture", "food", "nightlife", "mild", "budget-high"],
    "budgetLevel": 3,
    "vibeScore": { "city": 5, "beach": 1, "nature": 1, "adventure": 2, "culture": 5, "relax": 1 }
  },
  {
    "id": "san_francisco_us",
    "city": "San Francisco",
    "country": "United States",
    "countryCode": "US",
    "region": "North America",
    "lat": 37.7749,
    "lon": -122.4194,
    "tags": ["city", "scenic", "food", "culture", "mild", "budget-high"],
    "budgetLevel": 3,
    "vibeScore": { "city": 4, "beach": 1, "nature": 2, "adventure": 2, "culture": 4, "relax": 2 }
  },
  {
    "id": "los_angeles_us",
    "city": "Los Angeles",
    "country": "United States",
    "countryCode": "US",
    "region": "North America",
    "lat": 34.0522,
    "lon": -118.2437,
    "tags": ["city", "beach", "food", "nightlife", "warm", "budget-high"],
    "budgetLevel": 3,
    "vibeScore": { "city": 4, "beach": 4, "nature": 2, "adventure": 2, "culture": 3, "relax": 3 }
  },
  {
    "id": "miami_us",
    "city": "Miami",
    "country": "United States",
    "countryCode": "US",
    "region": "North America",
    "lat": 25.7617,
    "lon": -80.1918,
    "tags": ["beach", "city", "nightlife", "food", "warm", "budget-high"],
    "budgetLevel": 3,
    "vibeScore": { "city": 3, "beach": 5, "nature": 1, "adventure": 2, "culture": 2, "relax": 3 }
  },
  {
    "id": "vancouver_ca",
    "city": "Vancouver",
    "country": "Canada",
    "countryCode": "CA",
    "region": "North America",
    "lat": 49.2827,
    "lon": -123.1207,
    "tags": ["city", "nature", "mountains", "scenic", "mild", "budget-high"],
    "budgetLevel": 3,
    "vibeScore": { "city": 4, "beach": 1, "nature": 5, "adventure": 4, "culture": 2, "relax": 3 }
  },
  {
    "id": "mexico_city_mx",
    "city": "Mexico City",
    "country": "Mexico",
    "countryCode": "MX",
    "region": "North America",
    "lat": 19.4326,
    "lon": -99.1332,
    "tags": ["city", "culture", "food", "history", "mild", "budget-low"],
    "budgetLevel": 1,
    "vibeScore": { "city": 5, "beach": 0, "nature": 1, "adventure": 2, "culture": 5, "relax": 1 }
  },
  {
    "id": "cancun_mx",
    "city": "Cancún",
    "country": "Mexico",
    "countryCode": "MX",
    "region": "North America",
    "lat": 21.1619,
    "lon": -86.8515,
    "tags": ["beach", "resort", "relax", "warm", "budget-mid", "family"],
    "budgetLevel": 2,
    "vibeScore": { "city": 1, "beach": 5, "nature": 2, "adventure": 2, "culture": 1, "relax": 5 }
  },
  {
    "id": "havana_cu",
    "city": "Havana",
    "country": "Cuba",
    "countryCode": "CU",
    "region": "Caribbean",
    "lat": 23.1136,
    "lon": -82.3666,
    "tags": ["city", "culture", "history", "music", "warm", "budget-low"],
    "budgetLevel": 1,
    "vibeScore": { "city": 4, "beach": 2, "nature": 1, "adventure": 2, "culture": 4, "relax": 2 }
  },

  {
    "id": "rio_br",
    "city": "Rio de Janeiro",
    "country": "Brazil",
    "countryCode": "BR",
    "region": "South America",
    "lat": -22.9068,
    "lon": -43.1729,
    "tags": ["city", "beach", "scenic", "nightlife", "warm", "budget-mid"],
    "budgetLevel": 2,
    "vibeScore": { "city": 4, "beach": 5, "nature": 3, "adventure": 3, "culture": 3, "relax": 3 }
  },
  {
    "id": "sao_paulo_br",
    "city": "São Paulo",
    "country": "Brazil",
    "countryCode": "BR",
    "region": "South America",
    "lat": -23.5558,
    "lon": -46.6396,
    "tags": ["city", "food", "culture", "nightlife", "mild", "budget-mid"],
    "budgetLevel": 2,
    "vibeScore": { "city": 5, "beach": 0, "nature": 1, "adventure": 2, "culture": 4, "relax": 1 }
  },
  {
    "id": "buenos_aires_ar",
    "city": "Buenos Aires",
    "country": "Argentina",
    "countryCode": "AR",
    "region": "South America",
    "lat": -34.6037,
    "lon": -58.3816,
    "tags": ["city", "culture", "food", "nightlife", "mild", "budget-low"],
    "budgetLevel": 1,
    "vibeScore": { "city": 5, "beach": 0, "nature": 1, "adventure": 2, "culture": 4, "relax": 2 }
  },
  {
    "id": "lima_pe",
    "city": "Lima",
    "country": "Peru",
    "countryCode": "PE",
    "region": "South America",
    "lat": -12.0464,
    "lon": -77.0428,
    "tags": ["city", "food", "culture", "mild", "budget-low"],
    "budgetLevel": 1,
    "vibeScore": { "city": 4, "beach": 1, "nature": 2, "adventure": 3, "culture": 3, "relax": 2 }
  },
  {
    "id": "cusco_pe",
    "city": "Cusco",
    "country": "Peru",
    "countryCode": "PE",
    "region": "South America",
    "lat": -13.5319,
    "lon": -71.9675,
    "tags": ["culture", "history", "mountains", "adventure", "mild", "budget-low"],
    "budgetLevel": 1,
    "vibeScore": { "city": 2, "beach": 0, "nature": 4, "adventure": 5, "culture": 5, "relax": 2 }
  },
  {
    "id": "santiago_cl",
    "city": "Santiago",
    "country": "Chile",
    "countryCode": "CL",
    "region": "South America",
    "lat": -33.4489,
    "lon": -70.6693,
    "tags": ["city", "mountains", "culture", "mild", "budget-mid"],
    "budgetLevel": 2,
    "vibeScore": { "city": 4, "beach": 0, "nature": 3, "adventure": 3, "culture": 3, "relax": 2 }
  },

  {
    "id": "cape_town_za",
    "city": "Cape Town",
    "country": "South Africa",
    "countryCode": "ZA",
    "region": "Africa",
    "lat": -33.9249,
    "lon": 18.4241,
    "tags": ["city", "nature", "scenic", "beach", "food", "adventure", "mild", "budget-mid"],
    "budgetLevel": 2,
    "vibeScore": { "city": 4, "beach": 3, "nature": 5, "adventure": 4, "culture": 2, "relax": 3 }
  },
  {
    "id": "marrakech_ma",
    "city": "Marrakesh",
    "country": "Morocco",
    "countryCode": "MA",
    "region": "Africa",
    "lat": 31.6295,
    "lon": -7.9811,
    "tags": ["city", "culture", "markets", "desert", "warm", "budget-low"],
    "budgetLevel": 1,
    "vibeScore": { "city": 4, "beach": 0, "nature": 2, "adventure": 3, "culture": 4, "relax": 2 }
  },
  {
    "id": "cairo_eg",
    "city": "Cairo",
    "country": "Egypt",
    "countryCode": "EG",
    "region": "Africa",
    "lat": 30.0444,
    "lon": 31.2357,
    "tags": ["city", "history", "culture", "desert", "warm", "budget-low"],
    "budgetLevel": 1,
    "vibeScore": { "city": 4, "beach": 0, "nature": 1, "adventure": 3, "culture": 5, "relax": 1 }
  },
  {
    "id": "nairobi_ke",
    "city": "Nairobi",
    "country": "Kenya",
    "countryCode": "KE",
    "region": "Africa",
    "lat": -1.2921,
    "lon": 36.8219,
    "tags": ["city", "safari", "adventure", "nature", "mild", "budget-mid"],
    "budgetLevel": 2,
    "vibeScore": { "city": 3, "beach": 0, "nature": 5, "adventure": 5, "culture": 2, "relax": 2 }
  },
  {
    "id": "zanzibar_tz",
    "city": "Zanzibar",
    "country": "Tanzania",
    "countryCode": "TZ",
    "region": "Africa",
    "lat": -6.1659,
    "lon": 39.2026,
    "tags": ["beach", "island", "relax", "warm", "budget-mid", "romantic"],
    "budgetLevel": 2,
    "vibeScore": { "city": 1, "beach": 5, "nature": 3, "adventure": 2, "culture": 2, "relax": 5 }
  },

  {
    "id": "dubai_ae",
    "city": "Dubai",
    "country": "United Arab Emirates",
    "countryCode": "AE",
    "region": "Middle East",
    "lat": 25.2048,
    "lon": 55.2708,
    "tags": ["city", "luxury", "beach", "shopping", "warm", "budget-high"],
    "budgetLevel": 3,
    "vibeScore": { "city": 4, "beach": 3, "nature": 0, "adventure": 2, "culture": 1, "relax": 3 }
  },
  {
    "id": "istanbul_tr",
    "city": "Istanbul",
    "country": "Turkey",
    "countryCode": "TR",
    "region": "Middle East",
    "lat": 41.0082,
    "lon": 28.9784,
    "tags": ["city", "culture", "history", "food", "markets", "mild", "budget-low"],
    "budgetLevel": 1,
    "vibeScore": { "city": 5, "beach": 0, "nature": 1, "adventure": 2, "culture": 5, "relax": 2 }
  },
  {
    "id": "petra_jo",
    "city": "Petra",
    "country": "Jordan",
    "countryCode": "JO",
    "region": "Middle East",
    "lat": 30.3285,
    "lon": 35.4444,
    "tags": ["history", "culture", "desert", "adventure", "warm", "budget-mid"],
    "budgetLevel": 2,
    "vibeScore": { "city": 0, "beach": 0, "nature": 3, "adventure": 4, "culture": 5, "relax": 1 }
  },

  {
    "id": "tokyo_jp",
    "city": "Tokyo",
    "country": "Japan",
    "countryCode": "JP",
    "region": "Asia",
    "lat": 35.6762,
    "lon": 139.6503,
    "tags": ["city", "culture", "food", "nightlife", "mild", "budget-high"],
    "budgetLevel": 3,
    "vibeScore": { "city": 5, "beach": 0, "nature": 1, "adventure": 2, "culture": 4, "relax": 1 }
  },
  {
    "id": "kyoto_jp",
    "city": "Kyoto",
    "country": "Japan",
    "countryCode": "JP",
    "region": "Asia",
    "lat": 35.0116,
    "lon": 135.7681,
    "tags": ["culture", "history", "scenic", "mild", "budget-mid"],
    "budgetLevel": 2,
    "vibeScore": { "city": 3, "beach": 0, "nature": 2, "adventure": 1, "culture": 5, "relax": 3 }
  },
  {
    "id": "seoul_kr",
    "city": "Seoul",
    "country": "South Korea",
    "countryCode": "KR",
    "region": "Asia",
    "lat": 37.5665,
    "lon": 126.978,
    "tags": ["city", "culture", "food", "nightlife", "mild", "budget-mid"],
    "budgetLevel": 2,
    "vibeScore": { "city": 5, "beach": 0, "nature": 1, "adventure": 2, "culture": 4, "relax": 1 }
  },
  {
    "id": "bangkok_th",
    "city": "Bangkok",
    "country": "Thailand",
    "countryCode": "TH",
    "region": "Asia",
    "lat": 13.7563,
    "lon": 100.5018,
    "tags": ["city", "food", "nightlife", "culture", "warm", "budget-low"],
    "budgetLevel": 1,
    "vibeScore": { "city": 5, "beach": 0, "nature": 1, "adventure": 2, "culture": 3, "relax": 1 }
  },
  {
    "id": "chiang_mai_th",
    "city": "Chiang Mai",
    "country": "Thailand",
    "countryCode": "TH",
    "region": "Asia",
    "lat": 18.7883,
    "lon": 98.9853,
    "tags": ["nature", "culture", "food", "mountains", "mild", "budget-low"],
    "budgetLevel": 1,
    "vibeScore": { "city": 2, "beach": 0, "nature": 4, "adventure": 3, "culture": 3, "relax": 4 }
  },
  {
    "id": "phuket_th",
    "city": "Phuket",
    "country": "Thailand",
    "countryCode": "TH",
    "region": "Asia",
    "lat": 7.8804,
    "lon": 98.3923,
    "tags": ["beach", "island", "relax", "nightlife", "warm", "budget-mid"],
    "budgetLevel": 2,
    "vibeScore": { "city": 1, "beach": 5, "nature": 3, "adventure": 2, "culture": 1, "relax": 5 }
  },
  {
    "id": "singapore_sg",
    "city": "Singapore",
    "country": "Singapore",
    "countryCode": "SG",
    "region": "Asia",
    "lat": 1.3521,
    "lon": 103.8198,
    "tags": ["city", "food", "family", "culture", "warm", "budget-high"],
    "budgetLevel": 3,
    "vibeScore": { "city": 5, "beach": 1, "nature": 1, "adventure": 1, "culture": 3, "relax": 2 }
  },
  {
    "id": "hong_kong_hk",
    "city": "Hong Kong",
    "country": "China (Hong Kong)",
    "countryCode": "HK",
    "region": "Asia",
    "lat": 22.3193,
    "lon": 114.1694,
    "tags": ["city", "food", "nightlife", "scenic", "warm", "budget-high"],
    "budgetLevel": 3,
    "vibeScore": { "city": 5, "beach": 1, "nature": 2, "adventure": 2, "culture": 3, "relax": 1 }
  },
  {
    "id": "hanoi_vn",
    "city": "Hanoi",
    "country": "Vietnam",
    "countryCode": "VN",
    "region": "Asia",
    "lat": 21.0278,
    "lon": 105.8342,
    "tags": ["city", "culture", "food", "history", "warm", "budget-low"],
    "budgetLevel": 1,
    "vibeScore": { "city": 4, "beach": 0, "nature": 1, "adventure": 2, "culture": 4, "relax": 1 }
  },
  {
    "id": "ho_chi_minh_vn",
    "city": "Ho Chi Minh City",
    "country": "Vietnam",
    "countryCode": "VN",
    "region": "Asia",
    "lat": 10.8231,
    "lon": 106.6297,
    "tags": ["city", "food", "nightlife", "culture", "warm", "budget-low"],
    "budgetLevel": 1,
    "vibeScore": { "city": 4, "beach": 0, "nature": 1, "adventure": 2, "culture": 3, "relax": 1 }
  },
  {
    "id": "bali_id",
    "city": "Bali",
    "country": "Indonesia",
    "countryCode": "ID",
    "region": "Asia",
    "lat": -8.4095,
    "lon": 115.1889,
    "tags": ["beach", "island", "nature", "relax", "warm", "budget-mid", "romantic"],
    "budgetLevel": 2,
    "vibeScore": { "city": 0, "beach": 5, "nature": 4, "adventure": 3, "culture": 2, "relax": 5 }
  },
  {
    "id": "kuala_lumpur_my",
    "city": "Kuala Lumpur",
    "country": "Malaysia",
    "countryCode": "MY",
    "region": "Asia",
    "lat": 3.139,
    "lon": 101.6869,
    "tags": ["city", "food", "culture", "warm", "budget-low"],
    "budgetLevel": 1,
    "vibeScore": { "city": 4, "beach": 0, "nature": 1, "adventure": 1, "culture": 3, "relax": 2 }
  },
  {
    "id": "taipei_tw",
    "city": "Taipei",
    "country": "Taiwan",
    "countryCode": "TW",
    "region": "Asia",
    "lat": 25.033,
    "lon": 121.5654,
    "tags": ["city", "food", "culture", "nightlife", "warm", "budget-mid"],
    "budgetLevel": 2,
    "vibeScore": { "city": 4, "beach": 0, "nature": 2, "adventure": 2, "culture": 3, "relax": 2 }
  },

  {
    "id": "sydney_au",
    "city": "Sydney",
    "country": "Australia",
    "countryCode": "AU",
    "region": "Oceania",
    "lat": -33.8688,
    "lon": 151.2093,
    "tags": ["city", "beach", "scenic", "food", "mild", "budget-high"],
    "budgetLevel": 3,
    "vibeScore": { "city": 4, "beach": 4, "nature": 2, "adventure": 2, "culture": 2, "relax": 3 }
  },
  {
    "id": "melbourne_au",
    "city": "Melbourne",
    "country": "Australia",
    "countryCode": "AU",
    "region": "Oceania",
    "lat": -37.8136,
    "lon": 144.9631,
    "tags": ["city", "culture", "food", "nightlife", "mild", "budget-high"],
    "budgetLevel": 3,
    "vibeScore": { "city": 5, "beach": 1, "nature": 2, "adventure": 2, "culture": 4, "relax": 2 }
  },
  {
    "id": "auckland_nz",
    "city": "Auckland",
    "country": "New Zealand",
    "countryCode": "NZ",
    "region": "Oceania",
    "lat": -36.8485,
    "lon": 174.7633,
    "tags": ["city", "nature", "scenic", "mild", "budget-high"],
    "budgetLevel": 3,
    "vibeScore": { "city": 3, "beach": 2, "nature": 4, "adventure": 3, "culture": 2, "relax": 3 }
  },
  {
    "id": "queenstown_nz",
    "city": "Queenstown",
    "country": "New Zealand",
    "countryCode": "NZ",
    "region": "Oceania",
    "lat": -45.0312,
    "lon": 168.6626,
    "tags": ["nature", "mountains", "adventure", "scenic", "mild", "budget-high"],
    "budgetLevel": 3,
    "vibeScore": { "city": 1, "beach": 0, "nature": 5, "adventure": 5, "culture": 1, "relax": 3 }
  },

  {
    "id": "madrid_es",
    "city": "Madrid",
    "country": "Spain",
    "countryCode": "ES",
    "region": "Europe",
    "lat": 40.4168,
    "lon": -3.7038,
    "tags": ["city", "culture", "food", "nightlife", "warm", "budget-mid"],
    "budgetLevel": 2,
    "vibeScore": { "city": 5, "beach": 0, "nature": 1, "adventure": 1, "culture": 4, "relax": 2 }
  },
  {
    "id": "seville_es",
    "city": "Seville",
    "country": "Spain",
    "countryCode": "ES",
    "region": "Europe",
    "lat": 37.3891,
    "lon": -5.9845,
    "tags": ["city", "culture", "history", "food", "warm", "budget-low"],
    "budgetLevel": 1,
    "vibeScore": { "city": 4, "beach": 0, "nature": 1, "adventure": 1, "culture": 5, "relax": 2 }
  },
  {
    "id": "nice_fr",
    "city": "Nice",
    "country": "France",
    "countryCode": "FR",
    "region": "Europe",
    "lat": 43.7102,
    "lon": 7.262,
    "tags": ["beach", "city", "relax", "scenic", "warm", "budget-high"],
    "budgetLevel": 3,
    "vibeScore": { "city": 3, "beach": 4, "nature": 2, "adventure": 1, "culture": 2, "relax": 4 }
  },
  {
    "id": "athens_gr",
    "city": "Athens",
    "country": "Greece",
    "countryCode": "GR",
    "region": "Europe",
    "lat": 37.9838,
    "lon": 23.7275,
    "tags": ["city", "history", "culture", "food", "warm", "budget-low"],
    "budgetLevel": 1,
    "vibeScore": { "city": 4, "beach": 1, "nature": 1, "adventure": 1, "culture": 5, "relax": 1 }
  },
  {
    "id": "santorini_gr",
    "city": "Santorini",
    "country": "Greece",
    "countryCode": "GR",
    "region": "Europe",
    "lat": 36.3932,
    "lon": 25.4615,
    "tags": ["beach", "island", "romantic", "relax", "scenic", "warm", "budget-high"],
    "budgetLevel": 3,
    "vibeScore": { "city": 0, "beach": 4, "nature": 3, "adventure": 1, "culture": 1, "relax": 5 }
  },
  {
    "id": "split_hr",
    "city": "Split",
    "country": "Croatia",
    "countryCode": "HR",
    "region": "Europe",
    "lat": 43.5081,
    "lon": 16.4402,
    "tags": ["beach", "city", "scenic", "history", "warm", "budget-mid"],
    "budgetLevel": 2,
    "vibeScore": { "city": 3, "beach": 4, "nature": 2, "adventure": 2, "culture": 3, "relax": 3 }
  },

  {
    "id": "mumbai_in",
    "city": "Mumbai",
    "country": "India",
    "countryCode": "IN",
    "region": "Asia",
    "lat": 19.076,
    "lon": 72.8777,
    "tags": ["city", "food", "culture", "warm", "budget-low"],
    "budgetLevel": 1,
    "vibeScore": { "city": 4, "beach": 1, "nature": 0, "adventure": 1, "culture": 3, "relax": 1 }
  },
  {
    "id": "delhi_in",
    "city": "New Delhi",
    "country": "India",
    "countryCode": "IN",
    "region": "Asia",
    "lat": 28.6139,
    "lon": 77.209,
    "tags": ["city", "history", "culture", "food", "warm", "budget-low"],
    "budgetLevel": 1,
    "vibeScore": { "city": 4, "beach": 0, "nature": 0, "adventure": 2, "culture": 4, "relax": 1 }
  },
  {
    "id": "jaipur_in",
    "city": "Jaipur",
    "country": "India",
    "countryCode": "IN",
    "region": "Asia",
    "lat": 26.9124,
    "lon": 75.7873,
    "tags": ["city", "history", "culture", "warm", "budget-low"],
    "budgetLevel": 1,
    "vibeScore": { "city": 3, "beach": 0, "nature": 1, "adventure": 2, "culture": 5, "relax": 1 }
  },
  {
    "id": "goa_in",
    "city": "Goa",
    "country": "India",
    "countryCode": "IN",
    "region": "Asia",
    "lat": 15.2993,
    "lon": 74.124,
    "tags": ["beach", "relax", "nightlife", "warm", "budget-low"],
    "budgetLevel": 1,
    "vibeScore": { "city": 1, "beach": 5, "nature": 2, "adventure": 2, "culture": 1, "relax": 5 }
  },

  {
    "id": "sao_miguel_pt",
    "city": "Ponta Delgada (Azores)",
    "country": "Portugal",
    "countryCode": "PT",
    "region": "Europe",
    "lat": 37.7412,
    "lon": -25.6756,
    "tags": ["island", "nature", "scenic", "adventure", "mild", "budget-mid"],
    "budgetLevel": 2,
    "vibeScore": { "city": 1, "beach": 2, "nature": 5, "adventure": 4, "culture": 1, "relax": 3 }
  },

  {
    "id": "lagos_pt",
    "city": "Lagos (Algarve)",
    "country": "Portugal",
    "countryCode": "PT",
    "region": "Europe",
    "lat": 37.1028,
    "lon": -8.673,
    "tags": ["beach", "relax", "scenic", "warm", "budget-mid", "family"],
    "budgetLevel": 2,
    "vibeScore": { "city": 1, "beach": 5, "nature": 3, "adventure": 2, "culture": 1, "relax": 5 }
  },

  {
    "id": "honolulu_us",
    "city": "Honolulu",
    "country": "United States",
    "countryCode": "US",
    "region": "Oceania",
    "lat": 21.3069,
    "lon": -157.8583,
    "tags": ["beach", "island", "relax", "nature", "warm", "budget-high", "family"],
    "budgetLevel": 3,
    "vibeScore": { "city": 1, "beach": 5, "nature": 4, "adventure": 3, "culture": 1, "relax": 5 }
  },

  {
    "id": "banff_ca",
    "city": "Banff",
    "country": "Canada",
    "countryCode": "CA",
    "region": "North America",
    "lat": 51.1784,
    "lon": -115.5708,
    "tags": ["nature", "mountains", "scenic", "adventure", "cold", "budget-high"],
    "budgetLevel": 3,
    "vibeScore": { "city": 0, "beach": 0, "nature": 5, "adventure": 5, "culture": 0, "relax": 3 }
  },

  {
    "id": "jakarta_id",
    "city": "Jakarta",
    "country": "Indonesia",
    "countryCode": "ID",
    "region": "Asia",
    "lat": -6.2088,
    "lon": 106.8456,
    "tags": ["city", "food", "culture", "warm", "budget-low"],
    "budgetLevel": 1,
    "vibeScore": { "city": 4, "beach": 0, "nature": 0, "adventure": 1, "culture": 2, "relax": 1 }
  },

  {
    "id": "perth_au",
    "city": "Perth",
    "country": "Australia",
    "countryCode": "AU",
    "region": "Oceania",
    "lat": -31.9523,
    "lon": 115.8613,
    "tags": ["city", "beach", "relax", "warm", "budget-high"],
    "budgetLevel": 3,
    "vibeScore": { "city": 3, "beach": 4, "nature": 2, "adventure": 2, "culture": 1, "relax": 4 }
  },

  {
    "id": "helsinki_fi",
    "city": "Helsinki",
    "country": "Finland",
    "countryCode": "FI",
    "region": "Europe",
    "lat": 60.1699,
    "lon": 24.9384,
    "tags": ["city", "culture", "scenic", "cold", "budget-high"],
    "budgetLevel": 3,
    "vibeScore": { "city": 4, "beach": 0, "nature": 2, "adventure": 2, "culture": 3, "relax": 3 }
  },
  {
    "id": "oslo_no",
    "city": "Oslo",
    "country": "Norway",
    "countryCode": "NO",
    "region": "Europe",
    "lat": 59.9139,
    "lon": 10.7522,
    "tags": ["city", "nature", "scenic", "cold", "budget-high"],
    "budgetLevel": 3,
    "vibeScore": { "city": 4, "beach": 0, "nature": 4, "adventure": 3, "culture": 2, "relax": 2 }
  },
  {
    "id": "zurich_ch",
    "city": "Zurich",
    "country": "Switzerland",
    "countryCode": "CH",
    "region": "Europe",
    "lat": 47.3769,
    "lon": 8.5417,
    "tags": ["city", "nature", "mountains", "scenic", "cold", "budget-high"],
    "budgetLevel": 3,
    "vibeScore": { "city": 4, "beach": 0, "nature": 4, "adventure": 3, "culture": 2, "relax": 2 }
  },
  {
    "id": "edinburgh_uk",
    "city": "Edinburgh",
    "country": "United Kingdom",
    "countryCode": "UK",
    "region": "Europe",
    "lat": 55.9533,
    "lon": -3.1883,
    "tags": ["city", "history", "culture", "scenic", "cold", "budget-mid"],
    "budgetLevel": 2,
    "vibeScore": { "city": 4, "beach": 0, "nature": 2, "adventure": 2, "culture": 4, "relax": 2 }
  },
  {
    "id": "prague_cz",
    "city": "Prague",
    "country": "Czech Republic",
    "countryCode": "CZ",
    "region": "Europe",
    "lat": 50.0755,
    "lon": 14.4378,
    "tags": ["city", "history", "culture", "food", "cold", "budget-low"],
    "budgetLevel": 1,
    "vibeScore": { "city": 5, "beach": 0, "nature": 1, "adventure": 2, "culture": 5, "relax": 2 }  
  }
  ,
  {
    "id": "budapest_hu",
    "city": "Budapest",
    "country": "Hungary",
    "countryCode": "HU",
    "region": "Europe",
    "lat": 47.4979,
    "lon": 19.0402,
    "tags": ["city", "history", "culture", "food", "cold", "budget-low"],
    "budgetLevel": 1,
    "vibeScore": { "city": 5, "beach": 0, "nature": 1, "adventure": 2, "culture": 4, "relax": 2 }
  },
  {
    "id": "krakow_pl",
    "city": "Krakow",
    "country": "Poland",
    "countryCode": "PL",
    "region": "Europe",
    "lat": 50.0647,
    "lon": 19.945,
    "tags": ["city", "history", "culture", "food", "cold", "budget-low"],
    "budgetLevel": 1,
    "vibeScore": { "city": 4, "beach": 0, "nature": 1, "adventure": 2, "culture": 4, "relax": 2 }
  },
  {
    "id": "belgrade_rs",
    "city": "Belgrade",
    "country": "Serbia",
    "countryCode": "RS",
    "region": "Europe",
    "lat": 44.7866,
    "lon": 20.4489,
    "tags": ["city", "history", "culture", "nightlife", "cold", "budget-low"],
    "budgetLevel": 1,
    "vibeScore": { "city": 4, "beach": 0, "nature": 1, "adventure": 2, "culture": 3, "relax": 2 }
  },
  {
    "id": "vilnius_lt",
    "city": "Vilnius",
    "country": "Lithuania",
    "countryCode": "LT",
    "region": "Europe",
    "lat": 54.6872,
    "lon": 25.2797,
    "tags": ["city", "history", "culture", "scenic", "cold", "budget-low"],
    "budgetLevel": 1,
    "vibeScore": { "city": 4, "beach": 0, "nature": 1, "adventure": 2, "culture": 4, "relax": 2 }
  },
  {
    "id": "el_salvador_sv",
    "city": "San Salvador",
    "country": "El Salvador",
    "countryCode": "SV",
    "region": "Central America",
    "lat": 13.6929,
    "lon": -89.2182,
    "tags": ["city", "culture", "history", "warm", "budget-low"],
    "budgetLevel": 1,
    "vibeScore": { "city": 3, "beach": 1, "nature": 2, "adventure": 2, "culture": 3, "relax": 2 }
  },
  {
    "id": "panama_city_pa",
    "city": "Panama City",
    "country": "Panama",
    "countryCode": "PA",
    "region": "Central America",
    "lat": 8.9824,
    "lon": -79.5199,
    "tags": ["city", "culture", "history", "warm", "budget-mid"],
    "budgetLevel": 2,
    "vibeScore": { "city": 4, "beach": 1, "nature": 2, "adventure": 2, "culture": 3, "relax": 2 }
  },
  {
    "id": "san_jose_cr",
    "city": "San José",
    "country": "Costa Rica",
    "countryCode": "CR",
    "region": "Central America",
    "lat": 9.9281,
    "lon": -84.0907,
    "tags": ["city", "nature", "adventure", "warm", "budget-mid"],
    "budgetLevel": 2,
    "vibeScore": { "city": 3, "beach": 2, "nature": 4, "adventure": 4, "culture": 2, "relax": 2 }
  },
  {
    "id": "san_salvador_bs",
    "city": "Nassau",
    "country": "Bahamas",
    "countryCode": "BS",
    "region": "Caribbean",
    "lat": 25.0343,
    "lon": -77.3963,
    "tags": ["beach", "island", "relax", "warm", "budget-high", "romantic"],
    "budgetLevel": 3,
    "vibeScore": { "city": 1, "beach": 5, "nature": 3, "adventure": 2, "culture": 1, "relax": 5 }
  },
  {
    "id": "san_juan_pr",
    "city": "San Juan",
    "country": "Puerto Rico",
    "countryCode": "PR",
    "region": "Caribbean",
    "lat": 18.4655,
    "lon": -66.1057,
    "tags": ["beach", "city", "culture", "history", "warm", "budget-mid"],
    "budgetLevel": 2,
    "vibeScore": { "city": 3, "beach": 4, "nature": 2, "adventure": 2, "culture": 3, "relax": 3 }
  },
  {
    "id": "kingston_jm",
    "city": "Kingston",
    "country": "Jamaica",
    "countryCode": "JM",
    "region": "Caribbean",
    "lat": 17.9712,
    "lon": -76.7936,
    "tags": ["city", "culture", "music", "beach", "warm", "budget-mid"],
    "budgetLevel": 2,
    "vibeScore": { "city": 3, "beach": 4, "nature": 2, "adventure": 2, "culture": 4, "relax": 3 }
  }
]
